City_ID,City,Country,Date,Lat,Lng,Max Temp,Humidity,Cloudiness,Wind Speed
0,Popondetta,PG,2022-09-28 21:48:09,-8.7537,148.2534,81.86,67,83,1.41
1,The Pas,CA,2022-09-28 21:45:36,53.8251,-101.2541,68.02,45,0,12.66
2,Ushuaia,AR,2022-09-28 21:44:08,-54.8,-68.3,56.86,44,20,19.57
3,Los Llanos De Aridane,ES,2022-09-28 21:48:16,28.6585,-17.9182,70.12,96,100,11.5
4,East London,ZA,2022-09-28 21:48:18,-33.0153,27.9116,66.51,85,99,9.89
5,Mataura,NZ,2022-09-28 21:48:21,-46.1927,168.8643,49.48,99,100,3.33
6,Hasaki,JP,2022-09-28 21:48:23,35.7333,140.8333,68.4,57,100,2.64
7,Charters Towers,AU,2022-09-28 21:48:26,-20.1,146.2667,65.52,79,98,5.61
8,Upernavik,GL,2022-09-28 21:48:28,72.7868,-56.1549,30.47,92,100,8.7
9,Kaspiysk,RU,2022-09-28 21:48:31,42.8816,47.6392,62.78,88,89,6.71
10,Bluff,NZ,2022-09-28 21:48:37,-46.6,168.3333,49.8,83,100,12.55
11,Qaanaaq,GL,2022-09-28 21:48:40,77.484,-69.3632,26.65,93,100,8.12
12,Kaitangata,NZ,2022-09-28 21:48:44,-46.2817,169.8464,48.18,95,100,9.89
13,Timmins,CA,2022-09-28 21:48:46,48.4669,-81.3331,40.82,60,75,6.91
14,Tuktoyaktuk,CA,2022-09-28 21:48:48,69.4541,-133.0374,30.2,80,75,3.44
15,Rikitea,PF,2022-09-28 21:48:51,-23.1203,-134.9692,72.39,62,99,15.08
16,Makakilo City,US,2022-09-28 21:48:53,21.3469,-158.0858,86.32,51,20,13.8
17,Zyryanka,RU,2022-09-28 21:48:56,65.75,150.85,30.38,68,100,7.94
18,Pevek,RU,2022-09-28 21:48:59,69.7008,170.3133,26.55,74,96,6.44
19,Ribeira Grande,PT,2022-09-28 21:48:32,38.5167,-28.7,70.18,70,98,13.96
20,Ahipara,NZ,2022-09-28 21:49:03,-35.1667,173.1667,61.63,78,100,12.64
21,Puerto Ayora,EC,2022-09-28 21:49:06,-0.7393,-90.3518,76.96,89,64,4.0
22,Busselton,AU,2022-09-28 21:49:09,-33.65,115.3333,53.76,85,1,13.02
23,Kurilsk,RU,2022-09-28 21:49:12,45.2333,147.8833,58.98,62,6,5.3
24,Port Alfred,ZA,2022-09-28 21:49:14,-33.5906,26.891,61.18,92,91,3.0
25,Kutum,SD,2022-09-28 21:49:17,14.2,24.6667,80.4,39,98,7.58
26,Castro,BR,2022-09-28 21:49:20,-24.7911,-50.0119,51.31,98,100,9.17
27,Kahului,US,2022-09-28 21:49:22,20.8947,-156.47,87.82,60,20,24.16
28,Punta Arenas,CL,2022-09-28 21:44:33,-53.15,-70.9167,55.51,50,0,28.77
29,Verkhoyansk,RU,2022-09-28 21:49:27,67.5447,133.385,26.85,96,100,2.68
30,Faanui,PF,2022-09-28 21:49:29,-16.4833,-151.75,78.82,68,6,16.71
31,Hobyo,SO,2022-09-28 21:49:32,5.3505,48.5268,76.71,88,15,22.97
32,Paita,PE,2022-09-28 21:49:37,-5.0892,-81.1144,65.77,77,58,17.56
33,Sinnamary,GF,2022-09-28 21:49:40,5.3833,-52.95,80.11,82,81,12.5
34,Barrow,US,2022-09-28 21:49:43,71.2906,-156.7887,28.42,86,100,20.71
35,Vostok,RU,2022-09-28 21:49:45,46.4856,135.8833,43.14,83,9,0.2
36,Zambezi,ZM,2022-09-28 21:49:48,-13.5432,23.1047,69.22,28,69,5.06
37,Yellowknife,CA,2022-09-28 21:49:50,62.456,-114.3525,54.12,43,40,16.11
38,Constantine,DZ,2022-09-28 21:49:53,36.365,6.6147,63.81,72,40,4.61
39,Hilo,US,2022-09-28 21:49:58,19.7297,-155.09,89.28,68,20,5.75
40,Bay Roberts,CA,2022-09-28 21:50:01,47.5999,-53.2648,69.55,96,100,4.0
41,Thompson,CA,2022-09-28 21:45:36,55.7435,-97.8558,69.96,40,20,11.5
42,Batagay,RU,2022-09-28 21:50:07,67.6333,134.6333,26.91,95,100,2.93
43,Sabang,ID,2022-09-28 21:50:09,5.8933,95.3214,79.43,83,95,28.79
44,Khawhai,IN,2022-09-28 21:50:13,23.3667,93.1167,58.26,99,56,1.48
45,Hermanus,ZA,2022-09-28 21:50:16,-34.4187,19.2345,50.81,79,100,6.76
46,Leningradskiy,RU,2022-09-28 21:50:18,69.3833,178.4167,22.03,83,58,4.65
47,Anadyr,RU,2022-09-28 21:50:21,64.75,177.4833,30.7,100,75,6.71
48,Kavieng,PG,2022-09-28 21:51:23,-2.5744,150.7967,83.59,68,96,13.73
49,Sawakin,SD,2022-09-28 21:51:25,19.1059,37.3321,86.95,52,22,9.46
50,Praia Da Vitoria,PT,2022-09-28 21:51:29,38.7333,-27.0667,70.05,78,40,13.33
51,Xianshuigu,CN,2022-09-28 21:51:32,38.985,117.3828,62.6,77,0,4.47
52,Mirnyy,RU,2022-09-28 21:51:38,62.5353,113.9611,14.04,96,18,2.73
53,Krasnyy Chikoy,RU,2022-09-28 21:51:40,50.3643,108.7512,33.87,96,64,1.88
54,Hobart,AU,2022-09-28 21:51:44,-42.8794,147.3294,48.06,93,75,12.66
55,Atuona,PF,2022-09-28 21:51:46,-9.8,-139.0333,76.6,80,31,23.96
56,Cape Town,ZA,2022-09-28 21:48:14,-33.9258,18.4232,61.09,74,0,12.66
57,Tucuma,BR,2022-09-28 21:51:52,-0.1833,-50.05,79.75,78,97,8.19
58,Labuan,MY,2022-09-28 21:51:55,5.2767,115.2417,80.96,88,20,3.44
59,Vanimo,PG,2022-09-28 21:51:58,-2.6741,141.3028,78.01,85,97,5.7
60,Raudeberg,NO,2022-09-28 21:52:00,61.9875,5.1352,54.27,65,78,4.88
61,Sopelana,ES,2022-09-28 21:52:03,43.3789,-2.9831,63.39,73,75,10.36
62,Tigil,RU,2022-09-28 21:52:06,57.8,158.6667,42.93,86,100,11.56
63,Nanortalik,GL,2022-09-28 21:52:08,60.1432,-45.2371,42.03,99,100,10.76
64,Albany,US,2022-09-28 21:50:45,42.6001,-73.9662,62.58,82,52,3.0
65,Sitka,US,2022-09-28 21:52:13,57.0531,-135.33,53.49,82,75,0.0
66,Skibbereen,IE,2022-09-28 21:52:16,51.55,-9.2667,51.33,80,84,10.65
67,Muros,ES,2022-09-28 21:52:18,42.7762,-9.0603,60.1,86,100,7.74
68,Kodiak,US,2022-09-28 21:52:24,57.79,-152.4072,51.31,87,100,16.11
69,Kapaa,US,2022-09-28 21:52:26,22.0752,-159.319,85.48,63,0,11.5
70,Bengkulu,ID,2022-09-28 21:52:29,-3.8004,102.2655,74.57,90,82,4.43
71,Georgetown,MY,2022-09-28 21:50:17,5.4112,100.3354,79.9,91,20,4.61
72,Rawson,AR,2022-09-28 21:52:34,-43.3002,-65.1023,67.26,31,0,12.12
73,Deyang,CN,2022-09-28 21:52:38,31.1302,104.382,64.49,85,65,3.67
74,Lorengau,PG,2022-09-28 21:52:40,-2.0226,147.2712,83.82,66,100,11.01
75,Redmond,US,2022-09-28 21:52:43,47.674,-122.1215,69.22,64,100,1.01
76,Santa Rosa,PH,2022-09-28 21:49:02,14.3122,121.1114,79.11,94,100,2.42
77,Astana,KZ,2022-09-28 21:52:49,51.1801,71.446,30.15,74,100,6.71
78,Kruisfontein,ZA,2022-09-28 21:52:52,-34.0033,24.7314,58.89,93,4,5.97
79,Chernyshevskiy,RU,2022-09-28 21:52:55,63.0128,112.4714,20.8,87,20,2.93
80,Naze,JP,2022-09-28 21:52:58,28.3667,129.4833,70.72,77,0,4.92
81,Gumdag,TM,2022-09-28 21:53:00,39.2061,54.5906,73.18,23,0,16.37
82,Trairi,BR,2022-09-28 21:53:03,-3.2778,-39.2689,78.22,78,78,12.39
83,Sioux Lookout,CA,2022-09-28 21:53:06,50.1001,-91.917,59.07,44,75,8.05
84,Aitape,PG,2022-09-28 21:53:09,-3.1374,142.3475,79.57,80,72,4.92
85,Butaritari,KI,2022-09-28 21:53:12,3.0707,172.7902,81.25,78,100,14.36
86,Bredasdorp,ZA,2022-09-28 21:53:16,-34.5322,20.0403,54.88,85,100,1.1
87,Pozo Colorado,PY,2022-09-28 21:53:18,-23.4923,-58.7972,64.94,96,100,7.38
88,Severo-Kurilsk,RU,2022-09-28 21:53:20,50.6789,156.125,52.0,80,100,12.97
89,Sisimiut,GL,2022-09-28 21:53:25,66.9395,-53.6735,41.32,85,100,5.95
90,Dillon,US,2022-09-28 21:53:27,34.4166,-79.3712,73.42,27,100,11.27
91,New Norfolk,AU,2022-09-28 21:53:30,-42.7826,147.0587,47.7,80,100,3.0
92,Chokurdakh,RU,2022-09-28 21:53:32,70.6333,147.9167,21.43,78,32,5.5
93,Tuatapere,NZ,2022-09-28 21:53:34,-46.1333,167.6833,49.44,90,100,8.97
94,Sikonge,TZ,2022-09-28 21:53:37,-5.6333,32.7667,74.32,34,90,8.34
95,Tongren,CN,2022-09-28 21:54:40,27.7172,109.1853,66.83,85,0,1.19
96,Avera,US,2022-09-28 21:54:44,33.194,-82.5271,71.11,29,100,13.47
97,Shieli,KZ,2022-09-28 21:54:47,44.1667,66.75,55.15,42,95,13.82
98,Kichera,RU,2022-09-28 21:54:49,55.9375,110.0997,34.61,99,100,3.24
99,Port Elizabeth,ZA,2022-09-28 21:52:51,-33.918,25.5701,61.11,90,20,8.05
100,Baykit,RU,2022-09-28 21:54:54,61.67,96.37,28.33,82,100,5.59
101,Rameshki,RU,2022-09-28 21:54:56,57.3439,36.0453,42.46,97,100,1.34
102,Buala,SB,2022-09-28 21:54:58,-8.145,159.5921,83.21,66,64,9.08
103,Majene,ID,2022-09-28 21:55:00,-3.5403,118.9707,77.23,85,91,3.42
104,Mobaye,CF,2022-09-28 21:55:03,4.319,21.1786,68.22,99,74,3.65
105,Sola,VU,2022-09-28 21:55:05,-13.8833,167.55,79.65,75,98,20.07
106,Tasiilaq,GL,2022-09-28 21:55:08,65.6145,-37.6368,33.91,99,100,6.35
107,Hualmay,PE,2022-09-28 21:55:10,-11.0964,-77.6139,63.48,75,14,9.84
108,Calabar,NG,2022-09-28 21:55:13,4.9517,8.322,71.82,96,97,0.89
109,Hovd,MN,2022-09-28 21:55:16,48.0056,91.6419,42.58,52,8,8.68
110,Knysna,ZA,2022-09-28 21:55:20,-34.0363,23.0471,57.38,89,86,2.98
111,Roebourne,AU,2022-09-28 21:55:23,-20.7833,117.1333,68.68,62,42,7.58
112,Port Lincoln,AU,2022-09-28 21:55:26,-34.7333,135.8667,54.03,66,95,10.0
113,Necochea,AR,2022-09-28 21:55:30,-38.5473,-58.7368,48.25,58,0,8.99
114,San Patricio,US,2022-09-28 21:55:35,28.017,-97.5169,89.17,33,1,14.81
115,Valdemarpils,LV,2022-09-28 21:55:37,57.3707,22.5919,49.8,67,85,9.24
116,Gazimurskiy Zavod,RU,2022-09-28 21:55:41,51.5461,118.3266,38.62,74,100,1.21
117,Cidreira,BR,2022-09-28 21:55:44,-30.1811,-50.2056,60.85,70,100,11.7
118,Harper,LR,2022-09-28 21:55:47,4.375,-7.7169,76.28,89,90,11.07
119,Hambantota,LK,2022-09-28 21:55:50,6.1241,81.1185,75.54,94,20,2.3
120,Jamestown,US,2022-09-28 21:50:53,42.097,-79.2353,56.79,77,100,9.22
121,Ayaviri,PE,2022-09-28 21:55:55,-14.8864,-70.5889,61.38,7,1,8.86
122,Mafeteng,LS,2022-09-28 21:55:59,-29.823,27.2374,60.6,59,68,6.29
123,Boguchany,RU,2022-09-28 21:56:02,58.3814,97.4531,32.5,91,100,4.43
124,Kailua,US,2022-09-28 21:56:04,21.4022,-157.7394,87.03,54,20,10.36
125,Victoria,HK,2022-09-28 21:54:20,22.2855,114.1577,84.38,81,70,15.01
126,Tessalit,ML,2022-09-28 21:56:09,20.1986,1.0114,95.9,12,73,5.28
127,Silvan,TR,2022-09-28 21:56:11,38.1419,41.0081,57.49,20,17,0.78
128,Korla,CN,2022-09-28 21:56:13,41.7597,86.1469,65.37,35,70,16.96
129,Saskylakh,RU,2022-09-28 21:56:19,71.9167,114.0833,25.72,95,100,11.95
130,Bathsheba,BB,2022-09-28 21:56:22,13.2167,-59.5167,84.81,96,40,6.91
131,Carnarvon,AU,2022-09-28 21:56:24,-24.8667,113.6333,66.88,58,0,15.64
132,Ilulissat,GL,2022-09-28 21:56:27,69.2167,-51.1,35.22,99,100,5.46
133,Andenes,NO,2022-09-28 21:56:30,69.3143,16.1194,45.93,87,17,6.91
134,Batemans Bay,AU,2022-09-28 21:56:33,-35.7167,150.1833,58.1,90,97,11.34
135,Huarmey,PE,2022-09-28 21:56:35,-10.0681,-78.1522,64.8,74,4,9.78
136,Bambui,BR,2022-09-28 21:56:40,-20.0064,-45.9769,69.71,82,98,10.89
137,Clyde River,CA,2022-09-28 21:56:43,70.4692,-68.5914,32.23,69,20,8.05
138,Tripoli,LY,2022-09-28 21:55:20,32.8752,13.1875,76.51,65,0,7.0
139,Weligama,LK,2022-09-28 21:56:48,5.9667,80.4167,78.44,85,76,12.21
140,Sur,OM,2022-09-28 21:57:52,22.5667,59.5289,79.95,75,1,11.34
141,Mackenzie,CA,2022-09-28 21:57:56,55.2999,-123.1698,64.62,55,0,5.75
142,Neuquen,AR,2022-09-28 21:54:04,-38.9516,-68.0591,75.09,23,0,11.5
143,Adrar,MR,2022-09-28 21:58:04,20.5022,-10.0711,94.82,22,78,11.92
144,Coruripe,BR,2022-09-28 21:58:06,-10.1256,-36.1756,73.67,84,6,7.92
145,Yumen,CN,2022-09-28 21:58:11,40.2833,97.2,62.24,22,0,8.61
146,Alofi,NU,2022-09-28 21:58:13,-19.0595,-169.9187,78.69,83,40,9.22
147,Bethel,US,2022-09-28 21:58:15,41.3712,-73.414,67.66,69,80,1.01
148,Vaini,TO,2022-09-28 21:58:18,-21.2,-175.2,75.36,78,40,11.5
149,Yar-Sale,RU,2022-09-28 21:58:20,66.8333,70.8333,26.42,91,42,8.86
150,Luderitz,NA,2022-09-28 21:58:29,-26.6481,15.1594,58.17,76,7,10.94
151,Nikolskoye,RU,2022-09-28 21:58:32,59.7035,30.7861,44.49,94,100,6.4
152,Port Moresby,PG,2022-09-28 21:58:35,-9.4431,147.1797,76.42,94,20,5.75
153,Salihli,TR,2022-09-28 21:58:38,38.4826,28.1477,68.81,70,12,3.65
154,Kirakira,SB,2022-09-28 21:58:40,-10.4544,161.9205,83.57,67,9,7.65
155,Narsaq,GL,2022-09-28 21:58:45,60.9167,-46.05,43.52,93,100,4.05
156,Takaka,NZ,2022-09-28 21:58:48,-40.85,172.8,58.55,98,100,11.45
157,Katsuura,JP,2022-09-28 21:58:51,35.1333,140.3,72.27,66,100,4.5
158,Ocean City,US,2022-09-28 21:56:57,39.2776,-74.5746,68.29,56,64,5.99
159,Atar,MR,2022-09-28 21:58:56,20.5169,-13.0499,97.54,21,49,6.22
160,Tallahassee,US,2022-09-28 21:58:58,30.4383,-84.2807,79.0,42,100,4.0
161,Chuy,UY,2022-09-28 21:59:04,-33.6971,-53.4616,51.76,74,0,7.87
162,Vung Tau,VN,2022-09-28 21:54:53,10.346,107.0843,79.95,81,100,16.69
163,Mar Del Plata,AR,2022-09-28 21:59:10,-38.0023,-57.5575,53.94,55,0,10.36
164,Ponta Pora,BR,2022-09-28 21:59:13,-22.5361,-55.7256,67.91,88,75,8.05
165,Waipawa,NZ,2022-09-28 21:59:16,-41.4122,175.5153,56.25,74,100,15.23
166,Avarua,CK,2022-09-28 21:59:19,-21.2078,-159.775,78.85,83,75,11.5
167,Abaete,BR,2022-09-28 21:56:52,-19.16,-45.4458,75.94,63,71,1.39
168,Tautira,PF,2022-09-28 21:59:24,-17.7333,-149.15,77.7,78,2,19.24
169,Cherskiy,RU,2022-09-28 21:59:26,68.75,161.3,27.82,61,73,3.78
170,Arroyo,ES,2022-09-28 21:59:30,41.6096,-4.7969,60.15,58,0,12.66
171,Atasu,KZ,2022-09-28 21:59:32,48.6814,71.6433,31.44,60,97,7.36
172,Meulaboh,ID,2022-09-28 21:59:35,4.1363,96.1285,73.4,93,100,4.0
173,San Juan,AR,2022-09-28 21:57:19,-31.5375,-68.5364,55.65,66,100,7.83
174,Quang Ngai,VN,2022-09-28 21:59:40,15.1167,108.8,75.06,79,97,9.08
175,Caravelas,BR,2022-09-28 21:59:43,-17.7125,-39.2481,74.52,84,0,10.45
176,Vrangel,RU,2022-09-28 21:59:45,42.7297,133.0839,61.14,82,1,8.23
177,Carmen,MX,2022-09-28 21:59:48,18.6333,-91.8333,83.35,72,75,13.56
178,Thinadhoo,MV,2022-09-28 21:59:50,0.5333,72.9333,81.28,74,97,14.76
179,Kenora,CA,2022-09-28 21:59:01,49.8167,-94.4337,59.97,44,20,12.66
180,Doha,QA,2022-09-28 21:59:57,25.2867,51.5333,82.38,54,0,3.44
181,Catia La Mar,VE,2022-09-28 22:00:00,10.6038,-67.0303,84.99,77,75,2.3
182,San Quintin,MX,2022-09-28 21:57:51,30.4833,-115.95,77.43,67,3,8.46
183,Japura,ID,2022-09-28 22:00:07,-0.3167,102.35,73.18,97,100,1.74
184,Provideniya,RU,2022-09-28 22:01:11,64.3833,-173.3,41.36,93,100,20.13
185,Bayan,CN,2022-09-28 22:01:14,46.0833,127.4,49.15,54,15,12.33
186,Hithadhoo,MV,2022-09-28 22:01:17,-0.6,73.0833,81.01,74,100,10.94
187,Eureka,US,2022-09-28 22:00:18,40.8021,-124.1637,70.2,88,77,3.0
188,Souillac,MU,2022-09-28 22:01:23,-20.5167,57.5167,69.44,63,89,13.91
189,Gurlan,UZ,2022-09-28 22:01:25,41.8447,60.3919,60.71,34,42,13.13
190,Izvoarele,RO,2022-09-28 22:01:28,45.0333,25.2667,57.04,99,88,1.74
191,Lebu,CL,2022-09-28 22:01:30,-37.6167,-73.65,54.09,79,0,12.35
192,Huanan,CN,2022-09-28 22:01:33,46.2167,130.5167,45.72,59,62,4.12
193,Teknaf,BD,2022-09-28 22:01:35,20.8624,92.3058,77.34,91,68,3.85
194,Innisfail,AU,2022-09-28 21:58:27,-17.5333,146.0333,71.78,77,100,5.39
195,Te Anau,NZ,2022-09-28 22:01:41,-45.4167,167.7167,50.86,95,100,4.32
196,Lasa,IT,2022-09-28 22:01:44,46.6166,10.7002,48.36,97,100,2.44
197,Taiyuan,CN,2022-09-28 21:58:54,37.8694,112.5603,49.86,87,0,2.24
198,Padang,ID,2022-09-28 22:01:49,-0.9492,100.3543,75.65,86,100,3.96
199,Neiafu,TO,2022-09-28 22:01:51,-18.65,-173.9833,75.22,74,94,22.5
200,Kaka,TM,2022-09-28 22:01:55,37.3482,59.6143,67.84,28,0,6.24
201,Ruwi,OM,2022-09-28 22:01:57,23.5996,58.5507,82.38,72,1,4.45
202,Pryluky,UA,2022-09-28 21:58:37,50.5932,32.3876,54.59,92,92,5.84
203,Glendive,US,2022-09-28 22:01:45,47.1053,-104.7125,89.49,22,0,9.22
204,Faya,SA,2022-09-28 22:02:04,18.3851,42.4509,64.2,21,4,4.97
205,Saint-Philippe,RE,2022-09-28 22:02:10,-21.3585,55.7679,69.39,68,80,11.03
206,Itarema,BR,2022-09-28 22:02:12,-2.9248,-39.9167,78.06,81,46,16.33
207,Bandarbeyla,SO,2022-09-28 22:02:15,9.4942,50.8122,77.11,87,64,21.5
208,Viedma,AR,2022-09-28 22:02:18,-40.8135,-62.9967,62.01,36,0,8.93
209,Tiksi,RU,2022-09-28 22:02:21,71.6872,128.8694,25.54,84,100,3.42
210,Amlagora,IN,2022-09-28 22:02:23,22.8333,87.3333,78.82,88,91,1.36
211,Taoudenni,ML,2022-09-28 22:02:27,22.6783,-3.9836,99.3,16,6,11.68
212,Saravan,AM,2022-09-28 22:02:31,39.7196,45.6483,59.5,26,0,5.46
213,Grindavik,IS,2022-09-28 22:02:35,63.8424,-22.4338,46.87,87,75,9.22
214,Fort Smith,US,2022-09-28 22:02:38,35.3859,-94.3986,89.65,25,0,10.36
215,Acajutla,SV,2022-09-28 22:02:40,13.5928,-89.8275,81.61,80,96,4.9
216,Talnakh,RU,2022-09-28 22:02:43,69.4865,88.3972,20.07,79,95,2.13
217,Marihatag,PH,2022-09-28 22:02:47,8.7936,126.2969,76.24,89,100,3.6
218,Ancud,CL,2022-09-28 22:02:51,-41.8697,-73.8203,53.1,79,0,2.13
219,Asau,RO,2022-09-28 22:02:54,46.4333,26.4,56.32,83,28,4.41
220,Gimli,CA,2022-09-28 21:59:03,50.6336,-96.9907,59.02,55,54,20.71
221,Beloha,MG,2022-09-28 22:03:05,-25.1667,45.05,66.97,64,0,18.12
222,Dashitou,CN,2022-09-28 22:03:09,43.3067,128.5114,51.87,88,3,3.04
223,Grand Gaube,MU,2022-09-28 22:03:11,-20.0064,57.6608,69.39,59,56,1.01
224,Aswan,EG,2022-09-28 22:00:09,24.0934,32.907,90.72,17,0,3.96
225,West Lake Stevens,US,2022-09-28 22:03:17,47.9934,-122.1018,66.74,78,40,8.05
226,Bud,US,2022-09-28 22:03:22,39.447,-86.1758,62.55,58,26,11.05
227,Birao,CF,2022-09-28 22:03:25,10.2849,22.7882,71.44,86,51,4.45
228,Vologda,RU,2022-09-28 22:03:28,59.2187,39.8886,35.35,95,100,14.07
229,Red Bluff,US,2022-09-28 22:03:30,40.1785,-122.2358,86.68,26,0,9.22
230,Mount Gambier,AU,2022-09-28 22:03:33,-37.8333,140.7667,52.83,79,100,4.74
231,Dongning,CN,2022-09-28 22:04:36,44.0622,131.1207,54.34,80,2,1.5
232,Sao Felix Do Xingu,BR,2022-09-28 22:00:48,-6.6447,-51.995,84.22,40,47,1.68
233,Nishihara,JP,2022-09-28 22:04:41,26.1842,127.7558,78.08,83,75,8.05
234,Smolenka,RU,2022-09-28 22:04:44,52.1352,113.4974,39.27,81,20,6.71
235,Esperance,AU,2022-09-28 22:03:55,-33.8667,121.9,51.24,87,80,9.51
236,Tucurui,BR,2022-09-28 22:04:53,-3.7661,-49.6725,85.98,44,89,2.89
237,Mandalgovi,MN,2022-09-28 22:04:56,45.7625,106.2708,48.6,54,30,6.44
238,Krasnoselkup,RU,2022-09-28 22:05:00,65.7,82.4667,24.17,79,7,9.93
239,Arraial Do Cabo,BR,2022-09-28 22:05:02,-22.9661,-42.0278,68.81,95,100,13.11
240,Poum,NC,2022-09-28 22:04:00,-20.2333,164.0167,78.17,79,100,19.1
241,Manokwari,ID,2022-09-28 22:05:12,-0.8667,134.0833,79.63,74,100,3.27
242,Palana,RU,2022-09-28 22:05:16,59.1167,159.9667,42.6,74,100,7.38
243,La Rioja,ES,2022-09-28 22:05:22,42.25,-2.5,51.58,89,100,2.73
244,Nabire,ID,2022-09-28 22:05:25,-3.3667,135.4833,74.88,93,100,3.49
245,Bilma,NE,2022-09-28 22:05:29,18.6853,12.9164,89.94,14,35,4.05
246,Inta,RU,2022-09-28 22:05:32,66.0317,60.1659,27.52,71,11,5.73
247,Pemangkat,ID,2022-09-28 22:05:34,1.1667,108.9667,79.02,87,100,5.61
248,Medicine Hat,CA,2022-09-28 22:03:23,50.0501,-110.6683,93.22,18,98,11.32
249,Vila Velha,BR,2022-09-28 22:05:45,-20.3297,-40.2925,75.15,91,75,8.05
250,Buraydah,SA,2022-09-28 22:05:48,26.326,43.975,79.32,16,1,6.06
251,Hecun,CN,2022-09-28 22:05:51,36.5333,114.1111,68.09,40,0,4.94
252,Cartagena Del Chaira,CO,2022-09-28 22:05:54,1.3349,-74.8429,79.66,74,95,1.23
253,Gamba,GA,2022-09-28 22:05:57,-2.65,10.0,74.12,85,14,2.98
254,North Platte,US,2022-09-28 22:06:00,41.1239,-100.7654,78.69,34,0,15.01
255,Henties Bay,NA,2022-09-28 22:06:02,-22.116,14.2845,55.31,90,0,1.95
256,Siva,EG,2022-09-28 22:06:05,29.2041,25.5195,87.66,29,0,7.78
257,Jeremie,HT,2022-09-28 22:06:08,18.65,-74.1167,82.89,78,80,4.03
258,Port Hardy,CA,2022-09-28 22:06:11,50.6996,-127.4199,59.25,84,96,1.28
259,Codrington,AU,2022-09-28 22:06:14,-38.2667,141.9667,53.78,82,100,6.71
260,Airai,TL,2022-09-28 22:06:16,-8.9266,125.4092,62.13,85,58,2.21
261,Valparaiso,CL,2022-09-28 22:06:18,-33.0393,-71.6273,60.01,88,100,8.05
262,Maniitsoq,GL,2022-09-28 22:06:20,65.4167,-52.9,42.22,83,100,9.15
263,Maxixe,MZ,2022-09-28 22:06:23,-23.8597,35.3472,71.38,70,51,8.21
264,Matangad,PH,2022-09-28 22:06:25,8.5769,124.37,74.77,82,99,4.07
265,Sergeyevka,KZ,2022-09-28 22:06:28,53.88,67.4158,25.56,90,10,5.7
266,Sao Filipe,CV,2022-09-28 22:06:31,14.8961,-24.4956,80.69,82,67,6.38
267,Beidao,CN,2022-09-28 22:06:33,34.5686,105.8933,55.98,91,0,4.27
268,Dosso,NE,2022-09-28 22:06:36,13.049,3.1937,80.38,63,87,8.86
269,Ende,ID,2022-09-28 22:06:38,-8.8432,121.6623,77.81,86,70,1.61
270,Kholtoson,RU,2022-09-28 22:06:41,50.2981,103.3097,36.03,93,94,1.5
271,Lazaro Cardenas,MX,2022-09-28 22:06:43,17.9583,-102.2,84.09,74,15,7.83
272,Kinshasa,CD,2022-09-28 22:02:28,-4.3246,15.3215,75.61,76,41,0.22
273,Egvekinot,RU,2022-09-28 22:06:49,66.3167,-179.1667,26.29,77,100,12.26
274,Paveh,IR,2022-09-28 22:06:52,35.0434,46.3565,62.11,23,0,3.71
275,Paracatu,BR,2022-09-28 22:03:31,-17.2222,-46.8747,80.94,43,87,4.5
276,Barreirinhas,BR,2022-09-28 22:07:59,-2.7469,-42.8264,79.0,79,62,10.0
277,Kolokani,ML,2022-09-28 22:08:02,13.5728,-8.0339,79.59,69,57,7.67
278,La Ronge,CA,2022-09-28 22:08:05,55.1001,-105.2842,69.64,40,47,3.15
279,Labuhan,ID,2022-09-28 22:08:11,-6.8844,112.2051,76.98,82,88,7.02
280,Fort Nelson,CA,2022-09-28 22:08:13,58.8053,-122.7002,62.24,45,95,8.12
281,Bolpur,IN,2022-09-28 22:08:17,23.6667,87.7167,78.31,88,93,2.48
282,Omboue,GA,2022-09-28 22:08:24,-1.5746,9.2618,74.64,87,39,5.03
283,Okakarara,NA,2022-09-28 22:08:27,-20.5833,17.4333,69.46,22,23,5.17
284,Palu,ID,2022-09-28 22:08:30,-0.8917,119.8707,75.24,90,95,3.36
285,Ostrovnoy,RU,2022-09-28 22:08:33,68.0531,39.5131,37.24,87,51,8.46
286,Mount Isa,AU,2022-09-28 22:08:37,-20.7333,139.5,58.77,100,0,5.75
287,Marzuq,YE,2022-09-28 22:08:39,14.4,46.4667,77.02,32,14,2.77
288,Ilhabela,BR,2022-09-28 22:06:30,-23.7781,-45.3581,66.25,96,100,10.42
289,Semirom,IR,2022-09-28 22:08:44,31.4167,51.5667,55.45,18,0,2.39
290,Zadar,HR,2022-09-28 22:08:47,44.1197,15.2422,68.61,83,40,14.97
291,Springbok,ZA,2022-09-28 22:08:50,-29.6643,17.8865,61.25,32,90,1.74
292,Mahon,ES,2022-09-28 22:08:53,39.8885,4.2658,72.16,64,20,10.36
293,Jalu,LY,2022-09-28 22:08:57,29.0331,21.5482,88.0,21,0,7.49
294,Longyearbyen,SJ,2022-09-28 22:09:00,78.2186,15.6401,35.44,93,75,4.61
295,Artvin,TR,2022-09-28 22:09:03,41.1667,41.8333,62.37,42,50,1.28
296,Vao,NC,2022-09-28 22:09:07,-22.6667,167.4833,75.0,74,84,14.05
297,Road Town,VG,2022-09-28 22:09:09,18.4167,-64.6167,84.29,74,40,11.5
298,Cabedelo,BR,2022-09-28 22:09:12,-6.9811,-34.8339,75.87,79,1,10.47
299,Katangli,RU,2022-09-28 22:09:14,51.7102,143.2326,38.75,77,1,12.53
300,Chunoyar,RU,2022-09-28 22:09:17,57.4467,97.3217,33.73,97,100,4.03
301,Burnie,AU,2022-09-28 22:09:19,-41.0667,145.9167,52.95,83,100,4.76
302,Preobrazheniye,RU,2022-09-28 22:09:22,42.9019,133.9064,61.57,80,1,4.61
303,Rio Grande,BR,2022-09-28 22:06:29,-32.035,-52.0986,57.31,71,18,12.59
304,San Jose,US,2022-09-28 22:09:26,37.3394,-121.895,87.6,46,20,11.5
305,Anzio,IT,2022-09-28 22:09:28,41.4853,12.6179,69.39,73,78,19.44
306,Coahuayana,MX,2022-09-28 22:09:30,18.7333,-103.6833,87.12,67,46,5.99
307,Massakory,TD,2022-09-28 22:09:33,12.996,15.7293,83.17,57,56,6.02
308,Klaksvik,FO,2022-09-28 22:09:35,62.2266,-6.589,43.72,84,100,10.65
309,Dhidhdhoo,MV,2022-09-28 22:09:38,6.8833,73.1,81.46,73,68,12.64
310,Ponta Do Sol,PT,2022-09-28 22:09:41,32.6667,-17.1,71.01,84,60,4.7
311,Vestmannaeyjar,IS,2022-09-28 22:05:13,63.4427,-20.2734,48.72,84,100,4.65
312,Portland,US,2022-09-28 22:09:20,45.5234,-122.6762,72.66,67,75,12.66
313,Progress,US,2022-09-28 22:09:48,40.2851,-76.8314,66.7,61,40,5.75
314,Mecca,SA,2022-09-28 22:09:51,21.4267,39.8261,85.03,42,30,3.06
315,Cervo,ES,2022-09-28 22:09:55,43.6702,-7.4101,59.97,83,100,14.09
316,Nouadhibou,MR,2022-09-28 22:10:00,20.931,-17.0347,78.22,72,53,20.24
317,Vidisha,IN,2022-09-28 22:10:03,23.5333,77.8167,74.52,79,11,2.21
318,Zyryanovsk,KZ,2022-09-28 22:10:06,49.7386,84.2719,42.1,93,100,6.11
319,Brae,GB,2022-09-28 22:10:09,60.3964,-1.353,51.85,89,100,6.33
320,Chumikan,RU,2022-09-28 22:10:14,54.7183,135.315,34.52,77,3,14.0
321,Tucuman,AR,2022-09-28 22:11:17,-26.8241,-65.2226,55.4,88,100,4.61
322,Torbay,CA,2022-09-28 22:11:19,47.6666,-52.7314,66.88,95,100,12.71
323,Fortuna,US,2022-09-28 22:11:21,40.5982,-124.1573,69.93,77,83,1.99
324,Jarvenpaa,FI,2022-09-28 22:11:24,60.4737,25.0899,46.76,94,40,9.22
325,Cumberland,US,2022-09-28 22:11:26,35.0502,-78.8664,70.57,38,0,11.5
326,Kedrovka,RU,2022-09-28 22:11:30,55.5333,86.05,32.88,96,99,6.29
327,Chifeng,CN,2022-09-28 22:11:34,42.2683,118.9636,58.1,59,8,6.11
328,Dunedin,NZ,2022-09-28 22:11:37,-45.8742,170.5036,50.81,90,99,11.01
329,Marrakesh,MA,2022-09-28 22:11:39,31.6315,-8.0083,69.87,60,0,10.36
330,West Monroe,US,2022-09-28 22:11:19,32.5185,-92.1476,83.12,27,0,11.5
331,Warrnambool,AU,2022-09-28 22:11:45,-38.3833,142.4833,53.87,79,100,4.09
332,Bhuj,IN,2022-09-28 22:11:49,23.2667,69.6667,79.45,69,84,7.67
333,Karasjok,NO,2022-09-28 22:11:51,69.4719,25.5112,43.05,93,100,5.84
334,Zhengjiatun,CN,2022-09-28 22:11:53,43.5064,123.5064,57.99,83,6,12.62
335,Dikson,RU,2022-09-28 22:11:58,73.5069,80.5464,34.86,85,51,18.79
336,Geraldton,AU,2022-09-28 22:12:00,-28.7667,114.6,50.41,87,100,6.91
337,Makasar,ID,2022-09-28 22:12:02,-5.14,119.4221,75.25,94,20,2.3
338,Mehamn,NO,2022-09-28 22:12:05,71.0357,27.8492,46.35,81,0,10.36
339,Hammerfest,NO,2022-09-28 22:12:07,70.6634,23.6821,46.85,81,0,6.91
340,Ulladulla,AU,2022-09-28 22:12:09,-35.35,150.4667,57.94,90,100,15.35
341,Takoradi,GH,2022-09-28 22:12:11,4.8845,-1.7554,75.9,90,99,8.55
342,La Reforma,MX,2022-09-28 22:12:14,25.0833,-108.05,88.83,62,6,8.61
343,Fairbanks,US,2022-09-28 22:10:59,64.8378,-147.7164,52.14,54,75,9.22
344,Chino Valley,US,2022-09-28 22:12:18,34.7575,-112.4538,84.72,33,0,6.91
345,Mayumba,GA,2022-09-28 22:12:21,-3.432,10.6554,74.34,85,3,1.45
346,Darovskoy,RU,2022-09-28 22:12:23,58.77,47.9564,32.05,70,100,13.29
347,Puerto Escondido,MX,2022-09-28 22:12:27,15.85,-97.0667,85.03,51,40,6.91
348,Mahibadhoo,MV,2022-09-28 22:12:29,3.7833,72.9667,81.16,75,87,16.55
349,Finnsnes,NO,2022-09-28 22:12:31,69.2296,17.9811,30.81,80,7,3.83
350,Hemnesberget,NO,2022-09-28 22:12:34,66.2333,13.6333,50.72,79,91,6.44
351,Atambua,ID,2022-09-28 22:12:36,-9.1061,124.8925,75.58,82,90,1.16
352,Taltal,CL,2022-09-28 22:12:38,-25.4,-70.4833,60.66,62,23,4.79
353,Teguldet,RU,2022-09-28 22:12:41,57.3064,88.1667,32.86,98,100,6.29
354,Bairnsdale,AU,2022-09-28 22:12:43,-37.8333,147.6167,53.06,96,100,2.84
355,Iranshahr,IR,2022-09-28 22:12:45,27.2025,60.6848,80.37,51,0,0.89
356,Hervey Bay,AU,2022-09-28 22:12:48,-25.2986,152.8535,66.02,65,100,17.0
357,Namikupa,TZ,2022-09-28 22:12:50,-10.8333,39.6,64.51,96,0,0.63
358,Tual,ID,2022-09-28 22:12:52,-5.6667,132.75,82.29,73,39,7.38
359,Migori,KE,2022-09-28 22:12:54,-1.0634,34.4731,62.98,71,31,4.7
360,Honiara,SB,2022-09-28 22:10:31,-9.4333,159.95,83.19,67,34,7.81
361,Luanda,AO,2022-09-28 22:08:13,-8.8368,13.2343,72.09,80,44,5.28
362,Griffith,US,2022-09-28 22:13:01,41.5284,-87.4237,60.73,65,40,11.5
363,Pacific Grove,US,2022-09-28 22:11:36,36.6177,-121.9166,84.54,74,0,8.99
364,Miraflores,MX,2022-09-28 22:13:06,19.2167,-98.8083,72.36,67,98,3.98
365,Winfield,US,2022-09-28 22:13:08,37.2398,-96.9956,83.17,28,0,1.01
366,Tambopata,PE,2022-09-28 22:13:11,-12.7333,-69.1833,91.29,55,0,3.44
367,Pangai,TO,2022-09-28 22:13:14,-19.8,-174.35,74.14,74,69,21.16
368,Kodinsk,RU,2022-09-28 22:13:17,58.6881,99.1844,29.23,94,100,3.56
369,Nelson Bay,AU,2022-09-28 22:14:19,-32.7167,152.15,62.01,78,79,11.01
370,Kulhudhuffushi,MV,2022-09-28 22:14:21,6.6221,73.07,81.41,71,79,12.3
371,Antofagasta,CL,2022-09-28 22:10:19,-23.65,-70.4,58.28,70,9,8.3
372,Beringovskiy,RU,2022-09-28 22:14:26,63.05,179.3167,34.07,78,78,19.15
373,Port Blair,IN,2022-09-28 22:14:28,11.6667,92.75,81.1,80,100,11.32
374,Celestun,MX,2022-09-28 22:14:31,20.8667,-90.4,83.95,65,29,15.43
375,Moose Factory,CA,2022-09-28 22:14:33,51.2585,-80.6094,46.4,57,0,9.22
376,Ambulu,ID,2022-09-28 22:14:36,-8.345,113.6058,74.82,86,92,3.09
377,Qazanbulaq,AZ,2022-09-28 22:14:38,40.6192,46.6519,68.9,29,16,0.89
378,Swift Current,CA,2022-09-28 22:14:40,50.2834,-107.8014,88.61,14,0,5.75
379,Itacoatiara,BR,2022-09-28 22:14:43,-3.1431,-58.4442,91.35,31,16,2.3
380,Torma,EE,2022-09-28 22:14:45,58.8128,26.7383,44.69,90,98,4.76
381,Indramayu,ID,2022-09-28 22:14:47,-6.3264,108.32,79.52,73,99,6.58
382,Cabo San Lucas,MX,2022-09-28 22:12:05,22.8909,-109.9124,93.61,66,20,11.5
383,Bambanglipuro,ID,2022-09-28 22:14:53,-7.95,110.2833,74.95,87,96,4.32
384,Sorland,NO,2022-09-28 22:14:55,67.667,12.6934,46.26,77,52,10.38
385,Saint-Pierre,RE,2022-09-28 22:14:57,-21.3393,55.4781,67.68,73,100,18.41
386,Aripuana,BR,2022-09-28 22:15:00,-9.1667,-60.6333,88.65,40,68,0.81
387,Tura,IN,2022-09-28 22:15:02,25.5198,90.2201,73.45,92,55,3.04
388,Norman Wells,CA,2022-09-28 22:15:04,65.282,-126.8329,44.64,49,20,3.44
389,Florianopolis,BR,2022-09-28 22:11:32,-27.6146,-48.5012,61.83,78,40,13.8
390,Touros,BR,2022-09-28 22:15:11,-5.1989,-35.4608,77.18,73,0,15.82
391,Saint George,US,2022-09-28 22:14:57,37.1041,-113.5841,85.95,32,0,1.99
392,Ensley,US,2022-09-28 22:15:18,30.5188,-87.2728,80.49,24,0,18.41
393,Cranbrook,CA,2022-09-28 22:12:14,49.4999,-115.7688,78.64,25,75,4.61
394,Bani,DO,2022-09-28 22:15:23,18.2833,-70.3333,82.85,75,24,10.76
395,Kalakamati,BW,2022-09-28 22:15:25,-20.5929,27.3121,67.73,40,6,16.55
396,Batagay-Alyta,RU,2022-09-28 22:15:27,67.8006,130.4114,19.62,96,97,3.06
397,Porto Torres,IT,2022-09-28 22:15:32,40.835,8.3972,64.58,76,100,6.64
398,North Adams,US,2022-09-28 22:15:34,42.7009,-73.1087,60.06,78,75,4.61
399,Cockburn Town,TC,2022-09-28 22:15:37,21.4612,-71.1419,82.54,75,5,16.58
400,Plettenberg Bay,ZA,2022-09-28 22:15:39,-34.0527,23.3716,57.52,89,82,3.98
401,Cap Malheureux,MU,2022-09-28 22:15:41,-19.9842,57.6142,69.48,58,43,1.01
402,Ingham,US,2022-09-28 22:15:44,42.6,-84.3833,54.63,78,87,9.06
403,Emerald,AU,2022-09-28 22:15:47,-23.5333,148.1667,68.07,47,100,7.05
404,Loukhi,RU,2022-09-28 22:15:51,66.0764,33.0381,42.48,93,83,3.78
405,Khatanga,RU,2022-09-28 22:15:53,71.9667,102.5,26.19,95,100,12.62
406,Bend,US,2022-09-28 22:15:34,44.0582,-121.3153,75.15,37,57,7.0
407,Ketchikan,US,2022-09-28 22:16:00,55.3422,-131.6461,57.67,100,100,9.22
408,Carutapera,BR,2022-09-28 22:16:03,-1.195,-46.02,79.74,79,52,9.62
409,Derzhavinsk,KZ,2022-09-28 22:16:05,51.1,66.3167,30.6,58,45,6.53
410,Prievidza,SK,2022-09-28 22:16:08,48.7745,18.6275,53.24,96,100,2.73
411,Kontagora,NG,2022-09-28 22:16:10,10.3999,5.4695,70.95,93,46,3.67
412,Belle Fourche,US,2022-09-28 22:16:12,44.6714,-103.8522,89.51,27,42,8.88
413,Kamaishi,JP,2022-09-28 22:16:15,39.2667,141.8833,64.42,67,64,5.14
414,Pisco,PE,2022-09-28 22:14:41,-13.7,-76.2167,64.45,72,0,11.5
415,Jieshi,CN,2022-09-28 22:17:19,22.8134,115.8257,79.27,81,70,12.62
416,Sao Raimundo Das Mangabeiras,BR,2022-09-28 22:17:21,-7.0219,-45.4811,86.76,23,74,5.64
417,Aguimes,ES,2022-09-28 22:17:24,27.9054,-15.4461,70.66,73,20,23.02
418,Dingle,PH,2022-09-28 22:17:26,10.9995,122.6711,75.13,89,95,2.04
419,Muravlenko,RU,2022-09-28 22:17:29,63.7898,74.523,25.38,71,22,10.47
420,Numan,NG,2022-09-28 22:17:32,9.4667,12.0333,73.08,90,60,4.29
421,Nanakuli,US,2022-09-28 22:17:34,21.3906,-158.1547,87.75,49,0,11.5
422,Ixtapa,MX,2022-09-28 22:17:40,20.7,-105.2,87.22,79,75,10.36
423,Palmer,US,2022-09-28 22:17:43,42.1584,-72.3287,65.95,66,75,5.75
424,Bo Phloi,TH,2022-09-28 22:17:45,14.3236,99.5161,74.17,94,100,3.27
425,Oussouye,SN,2022-09-28 22:17:48,12.485,-16.5469,75.29,87,96,6.76
426,Uige,AO,2022-09-28 22:17:50,-7.6087,15.0613,68.0,89,97,0.6
427,Key Biscayne,US,2022-09-28 22:14:08,25.6937,-80.1628,82.42,90,100,17.27
428,Terenos,BR,2022-09-28 22:17:55,-20.4422,-54.8603,67.71,94,75,13.8
429,Ugoofaaru,MV,2022-09-28 22:17:57,5.6667,73.0,81.59,73,89,12.48
430,Ati,TD,2022-09-28 22:18:00,13.2154,18.3353,85.6,54,1,7.87
431,Bambous Virieux,MU,2022-09-28 22:18:02,-20.3428,57.7575,69.22,73,75,9.22
432,Richards Bay,ZA,2022-09-28 22:18:05,-28.783,32.0377,69.49,88,7,6.49
433,Guerrero Negro,MX,2022-09-28 22:18:07,27.9769,-114.0611,84.69,55,4,12.48
434,Victor Harbor,AU,2022-09-28 22:18:09,-35.5667,138.6167,50.68,80,51,9.26
435,Saint Simons,US,2022-09-28 22:18:12,31.1352,-81.3901,68.04,55,100,19.57
436,Ambilobe,MG,2022-09-28 22:18:14,-13.2,49.05,66.34,78,17,4.27
437,Puro,PH,2022-09-28 22:18:17,12.4841,123.3827,79.84,82,100,0.16
438,Kargil,IN,2022-09-28 22:18:19,34.5667,76.1,46.17,62,32,4.36
439,Kostino,RU,2022-09-28 22:18:22,58.9097,53.2691,27.95,72,97,10.07
440,Noumea,NC,2022-09-28 22:18:24,-22.2763,166.4572,80.58,99,93,2.77
441,Port Augusta,AU,2022-09-28 22:18:27,-32.5,137.7667,53.02,71,0,6.67
442,Ceres,US,2022-09-28 22:16:38,37.5949,-120.9577,93.79,20,0,8.05
443,Magadan,RU,2022-09-28 22:18:34,59.5667,150.8,40.53,96,100,13.04
444,Laplace,US,2022-09-28 22:18:37,30.0666,-90.4801,82.98,34,0,14.97
445,Iberia,US,2022-09-28 22:18:39,29.9502,-91.7507,82.96,28,0,21.85
446,Dehloran,IR,2022-09-28 22:18:42,32.6941,47.2679,81.48,13,0,3.27
447,Dzyhivka,UA,2022-09-28 22:18:44,48.359,28.3158,51.62,85,33,2.93
448,Paamiut,GL,2022-09-28 22:18:49,61.994,-49.6678,42.53,95,95,8.68
449,Humaita,BR,2022-09-28 22:18:51,-7.5061,-63.0208,92.3,35,56,2.98
450,Sivaki,RU,2022-09-28 22:18:56,52.6333,126.75,32.54,64,84,5.01
451,Namibe,AO,2022-09-28 22:19:03,-15.1961,12.1522,63.75,82,23,5.39
452,Tashla,RU,2022-09-28 22:19:08,51.7716,52.7427,52.11,76,100,18.19
453,Jining,CN,2022-09-28 22:19:10,35.405,116.5814,60.58,80,0,6.89
454,Kendari,ID,2022-09-28 22:19:13,-3.945,122.4989,76.93,91,100,3.02
455,Bubaque,GW,2022-09-28 22:19:15,11.2833,-15.8333,82.09,77,89,4.23
456,Katobu,ID,2022-09-28 22:19:19,-4.9408,122.5276,75.51,91,100,2.66
457,Anapskaya,RU,2022-09-28 22:19:21,44.89,37.38,66.43,88,40,6.71
458,Togur,RU,2022-09-28 22:19:24,58.3631,82.8265,29.88,98,100,4.68
459,Bac Lieu,VN,2022-09-28 22:20:26,9.285,105.7244,77.11,89,100,12.35
460,Khani,GE,2022-09-28 22:20:29,41.9563,42.9566,53.17,43,68,4.12
461,Haines Junction,CA,2022-09-28 22:20:31,60.7522,-137.5108,49.95,46,40,3.44
462,Lavrentiya,RU,2022-09-28 22:20:33,65.5833,-171.0,40.78,88,100,19.06
463,Santona,ES,2022-09-28 22:20:36,43.4439,-3.4576,62.91,85,97,21.34
464,Gornyak,RU,2022-09-28 22:20:38,50.9942,81.4661,32.99,87,99,10.31
465,Esso,RU,2022-09-28 22:20:42,55.9333,158.7,38.73,94,100,8.14
466,Hazleton,US,2022-09-28 22:20:45,40.9584,-75.9746,60.03,84,100,0.0
467,Tongliao,CN,2022-09-28 22:20:47,43.6125,122.2653,56.5,94,6,9.08
468,Sao Jose Da Coroa Grande,BR,2022-09-28 22:20:50,-8.8978,-35.1478,74.75,80,16,6.96
469,Vagur,FO,2022-09-28 22:20:52,61.4732,-6.8119,48.7,83,100,1.99
470,Dingzhou,CN,2022-09-28 22:20:54,38.5131,114.9956,60.91,60,0,3.33
471,Pascagoula,US,2022-09-28 22:20:12,30.3658,-88.5561,81.32,28,0,19.57
472,Kushiro,JP,2022-09-28 22:21:02,42.975,144.3747,54.55,87,20,5.75
473,Itoman,JP,2022-09-28 22:21:04,26.1247,127.6694,78.82,83,75,5.75
474,Inhambane,MZ,2022-09-28 22:21:07,-23.865,35.3833,72.3,69,52,9.31
475,Palanga,LT,2022-09-28 22:21:09,55.9175,21.0686,48.22,100,75,4.61
476,Prieska,ZA,2022-09-28 22:21:11,-29.6641,22.7474,71.92,40,67,6.85
477,Lae,PG,2022-09-28 22:21:14,-6.7221,146.9847,80.94,68,65,5.35
478,Husavik,IS,2022-09-28 22:21:16,66.0449,-17.3389,42.3,74,89,4.27
479,Fukue,JP,2022-09-28 22:21:19,32.6881,128.8419,74.37,67,95,16.84
480,Khunzakh,RU,2022-09-28 22:20:08,42.5394,46.705,53.51,34,99,5.48
481,Isangel,VU,2022-09-28 22:21:23,-19.55,169.2667,80.71,65,100,10.36
482,Hargeysa,SO,2022-09-28 22:20:36,9.56,44.065,74.73,54,58,10.27
483,Vila Franca Do Campo,PT,2022-09-28 22:21:27,37.7167,-25.4333,70.2,82,100,7.47
484,Cabras,IT,2022-09-28 22:21:30,39.93,8.5314,67.21,78,99,3.94
485,Solana Beach,US,2022-09-28 22:21:32,32.9912,-117.2711,100.74,67,0,10.36
486,Selishche,RU,2022-09-28 22:21:34,56.8879,33.2691,42.57,91,100,2.08
487,Camacha,PT,2022-09-28 22:21:37,33.0833,-16.3333,67.42,73,40,6.91
488,Maputo,MZ,2022-09-28 22:21:40,-25.9653,32.5892,72.23,86,20,3.44
489,Taber,CA,2022-09-28 22:21:42,49.8167,-112.1518,93.04,15,24,3.44
490,Tocopilla,CL,2022-09-28 22:21:44,-22.092,-70.1979,62.89,64,19,9.22
491,Along,IN,2022-09-28 22:21:47,28.1667,94.7667,68.59,97,32,1.99
492,Najran,SA,2022-09-28 22:21:51,17.4924,44.1277,72.25,19,2,3.13
493,Kununurra,AU,2022-09-28 22:21:53,-15.7667,128.7333,82.38,61,40,5.75
494,Sombrio,BR,2022-09-28 22:21:56,-29.1139,-49.6167,59.94,79,100,5.26
495,Ellsworth,US,2022-09-28 22:18:17,44.5434,-68.4195,62.96,81,20,3.44
496,Bezdan,RS,2022-09-28 22:22:01,45.8502,18.9259,57.18,84,99,7.0
497,Tevriz,RU,2022-09-28 22:22:04,57.509,72.4042,24.44,96,38,6.51
498,Oranjemund,NA,2022-09-28 22:22:06,-28.55,16.4333,56.01,89,85,6.08
499,Half Moon Bay,US,2022-09-28 22:22:08,37.4636,-122.4286,84.9,76,100,19.57
500,Northam,GB,2022-09-28 22:22:11,51.0333,-4.2167,53.62,76,49,12.19
501,Moindou,NC,2022-09-28 22:22:14,-21.6924,165.677,78.69,67,100,7.29
502,Picota,PE,2022-09-28 22:22:17,-6.9197,-76.3304,93.69,38,65,3.53
503,Qaqortoq,GL,2022-09-28 22:22:19,60.7167,-46.0333,43.2,96,100,6.58
504,Yulara,AU,2022-09-28 22:22:22,-25.2406,130.9889,58.57,37,79,13.44
505,Escarcega,MX,2022-09-28 22:22:24,18.6089,-90.7454,88.16,50,19,7.58
506,Sosnovo-Ozerskoye,RU,2022-09-28 22:22:27,52.5249,111.5418,33.39,85,68,9.28
507,Tamiahua,MX,2022-09-28 22:23:29,21.2667,-97.45,75.92,80,100,9.91
508,Vardo,NO,2022-09-28 22:23:32,70.3705,31.1107,48.18,81,100,17.27
509,Lebedinyy,RU,2022-09-28 22:23:35,58.5167,125.5167,21.56,84,100,5.23
510,Lompoc,US,2022-09-28 22:19:09,34.6391,-120.4579,90.01,68,20,12.66
511,Secunda,ZA,2022-09-28 22:23:39,-26.55,29.1667,60.91,55,0,4.5
512,Polunochnoye,RU,2022-09-28 22:21:22,60.8697,60.4153,21.87,96,80,3.94
513,San Cristobal,VE,2022-09-28 22:23:45,7.7669,-72.225,77.18,60,88,1.77
514,Ubinskoye,RU,2022-09-28 22:23:47,55.3068,79.6802,22.35,93,76,6.11
515,Coquimbo,CL,2022-09-28 22:19:15,-29.9533,-71.3436,56.93,76,75,10.36
516,Morgaushi,RU,2022-09-28 22:21:11,55.9643,46.7743,42.96,98,100,15.43
517,Cuamba,MZ,2022-09-28 22:23:54,-14.8031,36.5372,72.7,44,70,4.76
518,Iqaluit,CA,2022-09-28 22:23:57,63.7506,-68.5145,31.73,69,20,15.01
519,Betong,TH,2022-09-28 22:24:00,5.7743,101.0723,71.24,98,100,1.45
520,Mianyang,CN,2022-09-28 22:24:03,31.4593,104.7542,65.01,87,52,3.02
521,Pilar,BR,2022-09-28 22:24:08,-9.5972,-35.9567,75.13,91,6,4.16
522,Ca Mau,VN,2022-09-28 22:24:11,9.1769,105.15,75.49,91,100,7.18
523,Chastyye,RU,2022-09-28 22:24:13,57.2888,54.9728,28.67,71,100,12.06
524,Awjilah,LY,2022-09-28 22:24:16,29.1081,21.2869,88.34,21,0,7.87
525,Strezhevoy,RU,2022-09-28 22:23:54,60.7333,77.5889,26.98,74,98,8.7
526,Ayagoz,KZ,2022-09-28 22:24:23,47.9714,80.4392,36.61,93,83,11.48
527,Lockport,US,2022-09-28 22:20:31,41.5895,-88.0578,61.88,58,20,12.66
528,Oranzherei,RU,2022-09-28 22:24:28,45.8476,47.5663,67.32,68,100,2.62
529,Monster,NL,2022-09-28 22:24:30,52.0258,4.175,49.03,93,67,4.61
530,Ballina,AU,2022-09-28 22:24:33,-28.8667,153.5667,62.78,69,78,10.78
531,Stabat,ID,2022-09-28 22:24:35,3.761,98.4513,77.2,90,100,3.22
532,Acarau,BR,2022-09-28 22:19:49,-2.8856,-40.12,78.21,81,35,18.63
533,Brattleboro,US,2022-09-28 22:24:39,42.8509,-72.5579,64.22,72,56,1.99
534,Plastun,RU,2022-09-28 22:24:42,44.7561,136.2939,55.76,79,1,7.23
535,Auki,SB,2022-09-28 22:24:44,-8.7676,160.7034,82.54,65,46,4.07
536,San Rafael,AR,2022-09-28 22:24:46,-34.6177,-68.3301,58.98,54,100,21.92
537,Conway,US,2022-09-28 22:24:48,35.0887,-92.4421,80.89,28,0,11.5
538,Chara,RU,2022-09-28 22:24:53,56.9064,118.2631,30.07,96,100,2.3
539,Nalut,LY,2022-09-28 22:24:55,30.3333,10.85,76.89,25,47,9.08
540,Payo,ID,2022-09-28 22:24:57,-3.7508,103.6372,72.16,94,99,1.95
541,Lagoa,PT,2022-09-28 22:25:03,39.05,-27.9833,68.63,71,99,16.28
542,Goderich,CA,2022-09-28 22:25:05,43.7501,-81.7165,53.91,76,92,6.91
543,Iglesias,IT,2022-09-28 22:25:08,39.3114,8.535,64.78,82,100,4.56
544,Villamontes,BO,2022-09-28 22:25:11,-21.25,-63.5,58.64,81,100,6.91
545,Chapada Dos Guimaraes,BR,2022-09-28 22:25:13,-15.4606,-55.7497,73.06,69,99,6.46
546,Manzanillo,CU,2022-09-28 22:25:16,20.3433,-77.1167,86.23,66,87,9.15
547,Riyadh,SA,2022-09-28 22:25:11,24.6877,46.7219,80.74,17,0,7.25
548,Waingapu,ID,2022-09-28 22:25:21,-9.6567,120.2641,77.85,81,86,2.44
549,Babati,TZ,2022-09-28 22:25:24,-4.2167,35.75,60.51,69,88,2.8
550,Mahebourg,MU,2022-09-28 22:25:26,-20.4081,57.7,69.26,73,75,9.22
551,Wajir,KE,2022-09-28 22:25:29,1.7471,40.0573,77.14,57,10,17.96
552,Tansen,NP,2022-09-28 22:26:36,27.8673,83.5467,61.25,90,0,4.16
553,San Pelayo,CO,2022-09-28 22:26:39,8.9583,-75.8363,78.84,100,75,8.05
554,Rudbar,AF,2022-09-28 22:26:41,30.15,62.6,73.42,21,0,5.17
555,Nivala,FI,2022-09-28 22:26:43,63.9167,24.9667,43.68,97,20,4.34
556,Broome,US,2022-09-28 22:26:46,42.2506,-75.833,58.69,79,75,9.22
557,Chicama,PE,2022-09-28 22:26:49,-7.8447,-79.1469,59.54,66,35,7.96
558,Saint-Augustin,CA,2022-09-28 22:26:51,51.226,-58.6502,53.47,96,44,6.58
559,Yuksekova,TR,2022-09-28 22:26:54,37.5736,44.2872,42.55,49,0,2.3
560,Broken Hill,AU,2022-09-28 22:24:24,-31.95,141.4333,51.39,74,1,14.9
561,Hami,CN,2022-09-28 22:26:58,42.8,93.45,64.98,45,99,14.27
562,Gat,IL,2022-09-28 22:25:43,31.61,34.7642,78.4,65,0,3.4
563,Samarai,PG,2022-09-28 22:27:03,-10.6167,150.6667,82.29,78,69,13.94
564,Grafton,US,2022-09-28 22:27:05,42.207,-71.6856,66.45,70,0,3.44
565,Union De Reyes,CU,2022-09-28 22:27:08,22.7953,-81.5375,77.18,86,94,7.45
566,Acurenam,GQ,2022-09-28 22:27:13,1.0322,10.6488,64.47,99,54,3.02
567,Ulaangom,MN,2022-09-28 22:27:16,49.9811,92.0667,45.84,49,50,3.78
568,Komsomolskiy,UZ,2022-09-28 22:27:19,40.4272,71.7189,59.72,47,43,6.91
569,Nkhotakota,MW,2022-09-28 22:27:23,-12.9274,34.2961,73.98,58,45,5.3
570,Puerto Ayacucho,VE,2022-09-28 22:27:27,5.6639,-67.6236,80.4,83,94,1.77
571,Sotouboua,TG,2022-09-28 22:27:30,8.5667,0.9833,70.0,98,99,3.56
572,Chilca,PE,2022-09-28 22:27:32,-12.5211,-76.7372,60.93,81,59,6.02
573,Sabha,LY,2022-09-28 22:27:35,27.0377,14.4283,87.89,16,0,9.24
